[
  {
    "name": "Parsley Bay Swimming Enclosure, Vaucluse",
    "lat": -33.852746,
    "lng": 151.278041
  },
  {
    "name": "Nielsen Park \u2013 Shark Beach, Vaucluse",
    "lat": -33.850846,
    "lng": 151.268571
  },
  {
    "name": "Watsons Bay Baths, Watsons Bay",
    "lat": -33.844243,
    "lng": 151.281703
  },
  {
    "name": "Murray Rose Pool (Redleaf), Double Bay",
    "lat": -33.872072,
    "lng": 151.247724
  },
  {
    "name": "Marrinawi Cove, Barangaroo",
    "lat": -33.859,
    "lng": 151.199
  },
  {
    "name": "Maccallum Seawater Pool, Cremorne Point",
    "lat": -33.84532,
    "lng": 151.22808
  },
  {
    "name": "Balmoral Baths, Mosman",
    "lat": -33.825413,
    "lng": 151.251602
  },
  {
    "name": "Clifton Gardens (Chowder Bay) netted enclosure, Mosman",
    "lat": -33.84211,
    "lng": 151.24755
  },
  {
    "name": "Northbridge Baths, Sailors Bay",
    "lat": -33.806626,
    "lng": 151.221141
  },
  {
    "name": "Greenwich Baths, Greenwich",
    "lat": -33.84152,
    "lng": 151.18288
  },
  {
    "name": "Little Manly Cove tidal/netted pool, Manly",
    "lat": -33.806764,
    "lng": 151.286668
  },
  {
    "name": "Forty Baskets Beach netted enclosure, Balgowlah",
    "lat": -33.802309,
    "lng": 151.269516
  },
  {
    "name": "Woolwich Baths (Lane Cove River)",
    "lat": -33.8403,
    "lng": 151.1702
  },
  {
    "name": "Chiswick Baths (Parramatta River)",
    "lat": -33.85,
    "lng": 151.14
  },
  {
    "name": "Dawn Fraser Baths, Balmain",
    "lat": -33.856095,
    "lng": 151.170644
  }
]